,index,City,Country,Date,Latitude,Longitude,Temperature(F),Humidity(%),Cloudiness(%),WindSpeed(mph)
0,0,half moon bay,US,1547340960,37.46,-122.43,57.87,57,40,9.17
1,1,atuona,PF,1547343917,-9.8,-139.03,80.19,100,68,15.84
2,2,taolanaro,,,,,,,,
3,3,fairlie,US,1547343300,33.31,-95.96,43.25,72,90,12.75
4,4,faanui,PF,1547343606,-16.48,-151.75,82.44,100,92,22.32
5,5,acapulco,MX,1547340480,16.86,-99.88,80.6,78,40,8.05
6,6,bethel,US,1547340960,60.79,-161.76,-8.79,77,75,20.8
7,7,carnarvon,ZA,1547343420,-30.97,22.13,50.31,94,0,6.22
8,8,qaqortoq,GL,1547340600,60.72,-46.03,30.2,86,92,3.36
9,9,sur,OM,1547343919,22.57,59.53,69.75,100,8,4.38
10,10,agadez,NE,1547343746,16.97,7.99,53.1,45,8,1.36
11,11,kaitangata,NZ,1547343490,-46.28,169.85,56.07,100,100,5.06
12,12,port elizabeth,US,1547342640,39.31,-74.98,30.67,58,75,3.36
13,13,oksfjord,NO,1547342400,70.24,22.35,31.17,86,80,17.22
14,14,san cristobal,EC,1547341200,-0.39,-78.55,52.41,100,90,3.36
15,15,monrovia,LR,1547339400,6.33,-10.8,78.8,94,20,3.09
16,16,sitka,US,1547343920,37.17,-99.65,28.26,91,20,9.31
17,17,kapaa,US,1547340960,22.08,-159.32,79.16,68,75,9.17
18,18,bitung,ID,1547341200,1.44,125.19,84.2,74,20,2.24
19,19,rikitea,PF,1547343921,-23.12,-134.97,79.29,99,80,13.6
20,20,mbarara,UG,1547343921,-0.61,30.65,54.27,80,48,2.71
21,21,lima,PE,1547341200,-12.06,-77.04,73.4,83,0,20.8
22,22,srednekolymsk,RU,1547343764,67.46,153.71,-20.89,31,80,3.49
23,23,laguna,MX,1547340060,27.52,-110.01,69.8,46,20,4.7
24,24,mukhen,RU,1547343922,48.19,136.14,12.69,59,0,0.69
25,25,punta arenas,CL,1547341200,-53.16,-70.91,46.4,65,75,28.86
26,26,ushuaia,AR,1547341200,-54.81,-68.31,42.8,75,40,33.33
27,27,cape town,ZA,1547341200,-33.93,18.42,62.6,93,40,8.05
28,28,norman wells,CA,1547341200,65.28,-126.83,-40.01,65,40,2.24
29,29,anadyr,RU,1547341200,64.73,177.51,-16.61,68,0,17.9
30,30,santiago,CL,1547341200,-33.44,-70.65,67.35,55,0,11.41
31,31,bredasdorp,ZA,1547341200,-34.53,20.04,64.4,63,24,9.17
32,32,taksimo,RU,1547343613,56.36,114.84,-19.63,51,32,0.51
33,33,lakes entrance,AU,1547343923,-37.88,147.99,75.6,73,0,14.16
34,34,hobart,AU,1547341200,-42.88,147.33,69.8,44,0,12.75
35,35,kodiak,US,1547340900,39.95,-94.76,30.87,96,90,12.75
36,36,mataura,NZ,1547343409,-46.19,168.86,59.49,86,76,8.75
37,37,banda aceh,ID,1547343924,5.56,95.32,83.16,75,24,5.61
38,38,mar del plata,AR,1547343924,-46.43,-67.52,55.98,48,0,5.99
39,39,albany,US,1547342220,42.65,-73.75,15.17,44,75,5.82
40,40,barra patuca,HN,1547343925,15.8,-84.28,78.84,89,92,9.08
41,41,hefei,CN,1547341200,31.82,117.22,35.6,100,0,2.24
42,42,alamosa,US,1547343300,37.47,-105.87,20.8,91,90,6.93
43,43,avarua,CK,1547341200,-21.21,-159.78,84.2,74,75,11.41
44,44,tasbuget,,,,,,,,
45,45,barrow,AR,1547343926,-38.31,-60.23,63.54,97,88,10.13
46,46,tura,IN,1547343782,25.52,90.21,61.02,77,0,3.49
47,47,chokurdakh,RU,1547343507,70.62,147.9,-24.22,37,80,8.23
48,48,kruisfontein,ZA,1547343800,-34,24.73,60.66,92,0,6.89
49,49,hermanus,ZA,1547343926,-34.42,19.24,57.69,81,32,9.42
50,50,attawapiskat,,,,,,,,
51,51,lircay,PE,1547343927,-12.99,-74.72,36,97,92,2.53
52,52,illoqqortoormiut,,,,,,,,
53,53,sao filipe,CV,1547343927,14.9,-24.5,71.28,100,20,9.08
54,54,ribeira grande,PT,1547343928,38.52,-28.7,62.01,97,32,21.39
55,55,bluff,AU,1547343384,-23.58,149.07,91.98,42,0,10.92
56,56,ca mau,VN,1547343928,9.18,105.15,84.24,77,24,16.58
57,57,altay,CN,1547343928,47.83,88.13,-10.9,30,0,1.86
58,58,bandarbeyla,SO,1547343627,9.49,50.81,76.95,100,64,19.42
59,59,new norfolk,AU,1547341200,-42.78,147.06,69.8,36,0,12.75
60,60,burica,,,,,,,,
61,61,springdale,US,1547342280,36.19,-94.13,33.51,96,90,12.75
62,62,muisne,EC,1547343889,0.61,-80.02,74.61,77,68,2.59
63,63,busselton,AU,1547343929,-33.64,115.35,72.36,86,0,18.07
64,64,port alfred,ZA,1547343930,-33.59,26.89,67.41,92,32,7.74
65,65,lasa,CY,1547341200,34.92,32.53,53.85,66,68,13.87
66,66,saint-philippe,CA,1547343300,45.36,-73.48,2.26,87,1,2.98
67,67,qaanaaq,GL,1547343931,77.48,-69.36,-22.87,66,0,10.92
68,68,tasiilaq,GL,1547340600,65.61,-37.64,17.6,67,36,5.82
69,69,cabo san lucas,MX,1547340180,22.89,-109.91,71.6,78,40,4.7
70,70,luderitz,NA,1547343417,-26.65,15.16,59.85,90,12,4.76
71,71,ballina,IE,1547343521,54.11,-9.15,48.06,94,92,19.15
72,72,yellowknife,CA,1547341200,62.45,-114.38,-9.41,76,20,12.75
73,73,baft,IR,1547343932,29.23,56.61,14.76,66,0,0.47
74,74,malibu,US,1547343300,33.61,-84.48,37.42,92,90,6.93
75,75,iqaluit,CA,1547341200,63.75,-68.52,-25.61,67,5,18.34
76,76,east london,ZA,1547343932,-33.02,27.91,72.81,99,88,7.07
77,77,saskylakh,RU,1547343622,71.97,114.09,-55.9,0,0,4.27
78,78,umzimvubu,,,,,,,,
79,79,elbrus,RU,1547343933,43.26,42.65,13.32,100,64,1.48
80,80,jamestown,AU,1547343793,-33.21,138.6,89.46,25,0,9.24
81,81,sola,FI,1547342400,62.78,29.36,17.6,85,0,4.7
82,82,san juan,PH,1547341200,14.6,121.03,82.4,65,40,2.24
83,83,khokhlovo,RU,1547341200,50.71,36.69,17.6,85,90,13.42
84,84,vaini,IN,1547341200,15.34,74.49,60.8,77,0,4.76
85,85,petropavlovsk-kamchatskiy,RU,1547341200,53.05,158.65,28.4,54,76,8.95
86,86,spornoye,RU,1547341200,50.84,37.29,17.6,85,90,13.42
87,87,floro,NO,1547342400,61.6,5.03,41,93,92,19.46
88,88,ixtapa,MX,1547340240,20.71,-105.21,77,88,40,6.93
89,89,shenjiamen,CN,1547343935,29.96,122.3,47.07,100,24,15.05
90,90,pangnirtung,CA,1547343499,66.15,-65.72,-32.86,58,8,3.04
91,91,sao sebastiao,BR,1547343935,-3.15,-58.36,74.52,97,32,2.86
92,92,los llanos de aridane,ES,1547341200,28.66,-17.92,59,67,0,8.05
93,93,codrington,AU,1547341200,-28.95,153.24,84.74,48,40,6.93
94,94,cidreira,BR,1547343769,-30.17,-50.22,73.62,90,64,13.94
95,95,lebu,ET,1547343421,8.96,38.73,30.06,53,0,2.98
96,96,kinango,KE,1547343936,-4.13,39.32,78.84,99,100,10.58
97,97,maceio,BR,1547341200,-9.67,-35.74,77,78,40,6.93
98,98,evensk,RU,1547343617,61.92,159.24,2.97,100,0,6.78
99,99,nikolskoye,RU,1547341200,59.7,30.79,15.8,100,20,8.95
100,100,chuy,UY,1547343453,-33.69,-53.46,70.2,90,88,12.03
101,101,castro,CL,1547341200,-42.48,-73.76,48.2,76,0,5.82
102,102,maryville,US,1547343300,40.35,-94.87,30.47,97,90,13.87
103,103,trelew,AR,1547343938,-43.25,-65.31,60.48,51,0,10.8
104,104,komsomolskiy,RU,1547343149,67.55,63.78,5.22,82,68,15.17
105,105,khatanga,RU,1547343938,71.98,102.47,-29.53,49,64,7.11
106,106,goksun,TR,1547340600,38.02,36.5,44.6,56,75,5.82
107,107,touros,BR,1547341200,-5.2,-35.46,78.8,83,75,4.7
108,108,tazovskiy,RU,1547343939,67.47,78.7,-5.5,70,88,20.94
109,109,ozernovskiy,RU,1547343939,51.5,156.52,31.41,83,48,6.73
110,110,whitehorse,CA,1547341200,60.72,-135.06,-5.81,83,90,2.24
111,111,karratha,AU,1547343940,-20.74,116.85,108.54,15,8,10.54
112,112,hauterive,FR,1547341200,46.09,3.45,43.66,70,90,3.36
113,113,longyearbyen,NO,1547340600,78.22,15.63,6.8,55,20,16.11
114,114,kysyl-syr,RU,1547343941,63.9,122.77,-18.55,54,44,6.73
115,115,hasaki,JP,1547343000,35.73,140.83,47.14,57,20,13.87
116,116,bubaque,GW,1547343706,11.28,-15.83,77.49,100,8,11.25
117,117,menongue,AO,1547343941,-14.66,17.68,83.16,21,92,6.85
118,118,torbay,CA,1547341200,47.66,-52.73,30.2,74,90,10.29
119,119,alofi,NU,1547341200,-19.06,-169.92,84.2,70,48,13.87
120,120,mullaitivu,,,,,,,,
121,121,udayagiri,IN,1547343942,12.32,76.68,62.19,72,20,5.99
122,122,tuktoyaktuk,CA,1547341200,69.44,-133.03,-29.21,73,20,9.17
123,123,tiksi,RU,1547343435,71.64,128.87,-29.44,48,24,3.83
124,124,nizhneyansk,,,,,,,,
125,125,georgetown,GY,1547341200,6.8,-58.16,76.87,74,75,13.87
126,126,valparaiso,US,1547342100,41.47,-87.06,28.47,87,75,18.34
127,127,sentyabrskiy,,,,,,,,
128,128,inirida,CO,1547343944,3.87,-67.92,75.42,95,24,2.53
129,129,saint-georges,CA,1547343702,46.12,-70.67,2.61,56,0,5.77
130,130,ostrovnoy,RU,1547343388,68.05,39.51,20.34,90,64,10.76
131,131,san luis,AR,1547343650,-33.3,-66.34,71.01,66,24,5.73
132,132,ayan,TR,1547343801,40.67,33.6,30.24,98,88,2.53
133,133,thompson,CA,1547341200,55.74,-97.86,14,78,90,12.75
134,134,andevoranto,,,,,,,,
135,135,hualmay,PE,1547343496,-11.1,-77.61,64.62,95,0,6.29
136,136,koumac,NC,1547343946,-20.56,164.28,81.45,100,24,4.83
137,137,srikakulam,IN,1547343946,18.29,83.89,72.18,100,8,7.63
138,138,warqla,,,,,,,,
139,139,miri,NG,1547343946,10.31,9.75,57.42,55,8,4.61
140,140,severo-kurilsk,RU,1547343465,50.68,156.12,33.3,95,80,17.36
141,141,saint george,GR,1547340600,39.45,22.34,32,62,20,4.7
142,142,yushu,CN,1547343947,44.84,126.53,22.86,81,68,4.38
143,143,north bend,US,1547340960,43.41,-124.22,55.94,74,75,4.7
144,144,coruripe,BR,1547343947,-10.12,-36.18,74.88,100,92,7.34
145,145,turayf,SA,1547341200,31.68,38.65,44.6,75,75,9.17
146,146,lorengau,PG,1547343948,-2.02,147.27,83.43,99,76,13.44
147,147,dwarka,IN,1547341200,28.58,77.04,55.4,87,40,3.36
148,148,urdzhar,,,,,,,,
149,149,mahebourg,MU,1547341200,-20.41,57.7,78.8,78,40,11.41
150,150,shimoda,JP,1547341200,34.7,138.93,47.37,61,40,19.46
151,151,lagoa,PT,1547341200,37.14,-8.45,48.2,57,0,8.05
152,152,shaoyang,CN,1547343949,27.23,111.45,41.31,100,92,4.09
153,153,butaritari,KI,1547343396,3.07,172.79,82.98,100,56,7.56
154,154,west wendover,US,1547340960,40.74,-114.07,28.04,92,90,3.36
155,155,urosevac,,,,,,,,
156,156,victoria,BN,1547341200,5.28,115.24,80.38,83,75,6.93
157,157,san ignacio,CL,1547341200,-36.8,-72.03,64.4,45,88,8.05
158,158,ponta do sol,BR,1547343951,-20.63,-46,67.23,88,32,3.38
159,159,eganville,CA,1547341200,45.54,-77.1,1.4,64,1,2.24
160,160,erzin,TR,1547342400,36.95,36.2,48.2,57,0,17.22
161,161,tezu,IN,1547343952,27.93,96.16,57.15,44,0,1.59
162,162,buala,SB,1547343952,-8.15,159.59,87.12,78,24,9.42
163,163,port hardy,CA,1547341200,50.7,-127.42,48.2,81,90,21.92
164,164,hilo,US,1547340780,19.71,-155.08,78.98,62,1,17.22
165,165,soria,ES,1547343953,41.76,-2.46,26.82,85,12,5.21
166,166,sorvag,,,,,,,,
167,167,salo,FI,1547342400,60.38,23.13,21.2,100,0,3.36
168,168,nenjiang,CN,1547343953,49.17,125.23,3.78,62,12,7.11
169,169,arraial do cabo,BR,1547343953,-22.97,-42.02,76.5,90,0,13.27
170,170,yuncheng,CN,1547343954,35.03,111,33.66,66,48,0.74
171,171,asau,,,,,,,,
172,172,rio brilhante,BR,1547343954,-21.8,-54.54,76.68,80,0,2.82
173,173,marzuq,YE,1547343954,14.4,46.47,36.54,76,0,1.52
174,174,bilma,NE,1547343955,18.69,12.92,51.93,32,32,15.95
175,175,tecoanapa,MX,1547340480,16.99,-99.26,80.6,78,40,8.05
176,176,lata,IN,1547343581,30.78,78.62,32.04,100,92,1.59
177,177,kuche,,,,,,,,
178,178,santa maria del oro,MX,1547343956,25.95,-105.37,36.81,42,0,3.71
179,179,saint-joseph,FR,1547343000,43.56,6.97,42.51,74,0,6.93
180,180,penzance,GB,1547340600,50.12,-5.53,48.2,100,92,17.22
181,181,maragogi,BR,1547343580,-9.01,-35.22,73.89,100,92,5.1
182,182,fort nelson,CA,1547341200,58.81,-122.69,-4.01,83,75,2.24
183,183,tabiauea,,,,,,,,
184,184,puri,ID,1547341200,-7.54,112.45,84.2,79,20,2.24
185,185,jiuquan,CN,1547343958,39.73,98.49,5.04,66,12,1.59
186,186,tsihombe,,,,,,,,
187,187,pafos,,,,,,,,
188,188,medea,DZ,1547341200,36.27,2.77,41,86,0,4.7
189,189,saryshagan,,,,,,,,
190,190,yumen,CN,1547343958,40.29,97.04,5.49,70,24,10.25
191,191,bengkulu,,,,,,,,
192,192,muzhi,RU,1547343583,65.4,64.7,5.76,81,88,13.94
193,193,mundargi,IN,1547343959,15.22,75.9,63.9,72,0,9.31
194,194,barentsburg,,,,,,,,
195,195,saint-pierre,FR,1547341200,48.95,4.24,44.6,93,90,13.87
196,196,namibe,AO,1547343586,-15.19,12.15,72.63,100,0,8.75
197,197,dikson,RU,1547343890,73.51,80.55,-14.86,100,76,31.9
198,198,louisbourg,,,,,,,,
199,199,samarai,PG,1547343393,-10.62,150.67,82.71,100,24,14.05
200,200,saldanha,PT,1547343601,41.42,-6.55,18.81,79,0,3.09
201,201,hithadhoo,MV,1547343961,-0.6,73.08,81.36,100,8,5.21
202,202,bonavista,CA,1547343742,48.65,-53.11,25.38,100,76,10.36
203,203,svetlyy,,,,,,,,
204,204,assiniboia,CA,1547343961,49.63,-105.99,21.78,83,0,9.24
205,205,acarau,,,,,,,,
206,206,katsuura,JP,1547341200,33.93,134.5,42.8,81,40,8.05
207,207,yulara,AU,1547341200,-25.24,130.99,104,10,0,13.87
208,208,aberdeen,US,1547340780,45.47,-98.49,21.02,91,90,1.86
209,209,corning,US,1547340960,42.14,-77.05,20.17,59,90,6.93
210,210,miracema do tocantins,BR,1547343962,-9.56,-48.4,73.44,80,32,2.75
211,211,dalby,AU,1547341200,-27.18,151.26,84.2,39,0,13.87
212,212,kudahuvadhoo,MV,1547343453,2.67,72.89,81.99,100,88,11.25
213,213,sohag,EG,1547341200,26.55,31.7,59,26,0,2.24
214,214,vlasotince,RS,1547343000,42.97,22.13,28.4,100,75,1.12
215,215,pokhara,NP,1547343963,28.21,83.99,45.18,52,0,3.6
216,216,koryazhma,RU,1547343964,61.32,47.16,15.21,84,92,9.24
217,217,strelka,RU,1547343964,58.08,93.03,-11.98,39,24,5.06
218,218,vao,EE,1547343964,59.1,26.19,14.85,86,12,4.5
219,219,kutum,SD,1547343964,14.2,24.66,47.7,69,0,1.52
220,220,pisco,PE,1547341200,-13.71,-76.2,71.6,88,0,21.92
221,221,narsaq,GL,1547340600,60.91,-46.05,30.2,86,80,3.36
222,222,akdepe,TM,1547341200,42.05,59.39,35.6,87,40,16.11
223,223,saint albans,US,1547343300,44.81,-73.08,2.82,87,1,4.76
224,224,oparino,RU,1547343966,59.85,48.28,14.94,79,68,5.88
225,225,thinadhoo,MV,1547343966,0.53,72.93,82.26,100,20,8.57
226,226,sao joao da barra,BR,1547343966,-21.64,-41.05,79.38,96,48,14.67
227,227,isangel,VU,1547343543,-19.55,169.27,79.38,100,64,4.76
228,228,bolungarvik,,,,,,,,
229,229,searcy,US,1547342040,35.25,-91.74,43.39,100,90,4.7
230,230,tabas,IR,1547341200,33.6,56.92,30.2,46,0,2.24
231,231,shingu,JP,1547341200,33.72,135.99,50,100,20,9.17
232,232,dukat,RS,1547343968,42.44,22.31,16.02,93,68,1.36
233,233,mandera,ET,1547343968,3.94,41.86,64.26,67,0,5.39
234,234,prince george,CA,1547341200,53.92,-122.75,33.8,87,90,6.93
235,235,kigoma,TZ,1547343969,-4.88,29.64,73.53,100,80,3.27
236,236,hiriyur,IN,1547343969,13.94,76.62,61.29,77,0,4.21
237,237,chapais,CA,1547341200,49.78,-74.86,-2.21,84,90,6.93
238,238,monroe,US,1547343300,41.91,-83.4,27.5,92,90,10.29
239,239,hambantota,LK,1547338200,6.12,81.12,75.2,100,40,8.05
240,240,carlsbad,CZ,1547341200,50.23,12.87,34.12,98,90,12.75
241,241,araguacu,,,,,,,,
242,242,bud,NO,1547342400,62.91,6.91,35.69,100,92,5.82
243,243,panorama,BR,1547343970,-21.35,-51.86,73.8,79,24,2.19
244,244,honiara,SB,1547343788,-9.43,159.96,80.28,90,92,2.86
245,245,flin flon,CA,1547343971,54.77,-101.88,14.04,83,64,5.32
246,246,fukue,JP,1547343000,35.03,136.69,48.2,100,20,6.93
247,247,ratnagiri,IN,1547343971,16.98,73.3,75.51,100,0,7.85
248,248,gushikawa,JP,1547343000,26.35,127.87,68.2,56,75,16.11
249,249,port lincoln,AU,1547343972,-34.72,135.86,73.98,69,0,14.61
250,250,jaisinghnagar,IN,1547343972,23.63,78.57,57.69,78,0,3.87
251,251,champerico,MX,1547340240,16.38,-93.6,75.2,64,40,11.41
252,252,nendaz,CH,1547342400,46.19,7.31,23.27,92,92,1.03
253,253,eureka,US,1547343300,40.8,-124.16,55.71,100,75,6.85
254,254,barao de melgaco,BR,1547341200,-16.19,-55.97,78.8,88,75,2.24
255,255,patamundai,IN,1547343974,20.57,86.57,66.96,68,0,4.72
256,256,vestmannaeyjar,IS,1547343974,63.44,-20.27,34.92,100,36,10.92
257,257,zyryanskoye,RU,1547343974,56.83,86.62,-22.33,33,12,6.33
258,258,alyangula,AU,1547341200,-13.85,136.42,89.6,59,75,10.29
259,259,belmonte,PT,1547343619,40.36,-7.35,28.17,81,0,5.88
260,260,san patricio,PY,1547343975,-26.98,-56.83,74.88,95,8,3.87
261,261,batemans bay,AU,1547343975,-35.71,150.18,71.46,86,76,4.72
262,262,morondava,MG,1547343975,-20.3,44.28,77.31,100,76,3.76
263,263,dakar,SN,1547341200,14.69,-17.45,69.8,83,0,11.41
264,264,mananjary,MG,1547343976,-19.16,46.8,56.52,89,32,2.86
265,265,salalah,OM,1547340600,17.01,54.1,73.4,31,0,9.17
266,266,poum,MK,1547343903,41.28,20.71,0.72,55,0,1.36
267,267,souillac,FR,1547341200,45.6,-0.6,46.18,93,90,6.93
268,268,grahamstown,ZA,1547343977,-33.31,26.53,60.57,87,48,4.5
269,269,camalu,MX,1547343977,30.85,-116.07,44.91,100,0,4.5
270,270,najran,SA,1547341200,17.54,44.22,51.8,50,0,2.48
271,271,kavaratti,IN,1547343977,10.57,72.64,81.54,100,0,10.54
272,272,kenai,US,1547340960,60.55,-151.26,12.96,64,90,14.99
273,273,a,,,,,,,,
274,274,lavrentiya,RU,1547343739,65.58,-170.99,-11.08,92,8,28.7
275,275,namatanai,PG,1547343885,-3.66,152.44,82.89,100,88,17.47
276,276,airai,TL,1547343978,-8.93,125.41,87.93,51,12,1.97
277,277,tuatapere,NZ,1547343978,-46.13,167.69,58.68,86,8,10.87
278,278,todos santos,MX,1547340180,23.45,-110.23,71.6,78,40,4.7
279,279,puerto ayora,EC,1547343979,-0.74,-90.35,76.68,99,20,10.54
280,280,pitimbu,BR,1547341200,-7.47,-34.81,75.2,94,0,4.7
281,281,freeport,BS,1547343809,26.54,-78.7,75.78,99,92,9.91
282,282,mocuba,MZ,1547343533,-16.84,36.99,74.16,93,80,5.21
283,283,vuktyl,RU,1547343979,63.86,57.31,12.87,69,68,8.08
284,284,macusani,PE,1547343980,-14.07,-70.43,46.08,97,24,1.3
285,285,pervomayskoye,RU,1547343980,57.07,86.23,-22.33,33,12,6.33
286,286,xichang,CN,1547343980,27.88,102.25,58.95,17,0,1.97
287,287,brigantine,US,1547340900,39.41,-74.36,31.24,40,90,4.76
288,288,muros,ES,1547341200,42.77,-9.06,41,86,0,1.12
289,289,chifeng,CN,1547343981,42.27,118.96,24.03,34,0,3.83
290,290,derzhavinsk,KZ,1547343982,51.1,66.31,12.69,77,68,14.27
291,291,ngukurr,,,,,,,,
292,292,kjollefjord,NO,1547343982,70.95,27.35,30.33,87,80,11.1
293,293,bucovat,RO,1547341200,44.3,23.75,23,92,0,8.05
294,294,sistranda,NO,1547343615,63.73,8.83,41.04,100,92,23.73
295,295,octeville,FR,1547342400,49.63,-1.64,50,87,90,18.34
296,296,estevan,CA,1547342100,49.14,-102.99,14,85,1,6.93
297,297,yukuhashi,JP,1547343000,33.72,130.98,49.93,76,75,2.24
298,298,clyde river,CA,1547341200,70.47,-68.59,-34.61,73,1,4.7
299,299,palabuhanratu,,,,,,,,
300,300,coahuayana,MX,1547343984,18.62,-100.35,62.46,78,12,2.48
301,301,dunedin,NZ,1547343904,-45.87,170.5,59.76,94,64,4.72
302,302,maumere,ID,1547343985,-8.63,122.22,84.78,95,0,5.5
303,303,amga,RU,1547343985,60.89,131.98,-22.42,32,24,3.38
304,304,alegrete,BR,1547343986,-29.79,-55.79,71.01,97,0,7.56
305,305,kibala,TD,1547341200,9.11,18.35,73.4,33,0,3.53
306,306,cherskiy,RU,1547343523,68.75,161.3,-17.65,52,44,1.81
307,307,kocevje,SI,1547341200,45.64,14.86,33.67,80,0,4.7
308,308,moose factory,CA,1547341200,51.26,-80.61,-11.21,76,1,5.82
309,309,nhulunbuy,AU,1547341560,-12.18,136.78,78.8,88,40,19.46
310,310,talnakh,RU,1547343988,69.49,88.39,-28.99,46,68,14.05
311,311,socorro,PH,1547343988,13.06,121.41,74.34,100,92,8.57
312,312,kamenskoye,,,,,,,,
313,313,xai-xai,MZ,1547343989,-25.04,33.64,77.76,97,48,13.27
314,314,yatou,CM,1547341200,3.63,9.81,78.8,100,40,9.24
315,315,jackson,US,1547343300,35.61,-88.82,46.76,93,90,5.82
316,316,broome,GB,1547342760,52.47,1.45,50.99,87,80,18.34
317,317,sabang,PH,1547343990,13.72,123.58,79.56,87,92,14.34
318,318,pevek,RU,1547343990,69.7,170.27,-23.68,71,0,4.72
319,319,tsabong,BW,1547343991,-26.02,22.4,65.61,22,0,10.92
320,320,zhigansk,RU,1547343892,66.77,123.37,-18.46,54,32,10.13
321,321,viedma,AR,1547343991,-40.81,-62.99,68.58,42,0,4.61
322,322,kloulklubed,PW,1547344200,7.04,134.26,82.4,78,75,16.11
323,323,tilichiki,RU,1547343991,60.47,166.1,-9.28,67,0,2.86
324,324,lumeje,AO,1547343992,-11.56,20.78,66.06,93,88,5.99
325,325,arcata,US,1547343300,40.87,-124.08,55.71,100,75,6.85
326,326,mehamn,NO,1547343926,71.03,27.85,30.33,87,80,11.1
327,327,westport,IE,1547343789,53.8,-9.52,48.69,95,92,19.82
328,328,richards bay,ZA,1547343992,-28.77,32.06,65.07,99,0,2.86
329,329,pacifica,US,1547342100,37.61,-122.49,57.13,82,75,4.7
330,330,dingle,PH,1547343511,11,122.67,81.99,72,48,14.05
331,331,fortuna,ES,1547341200,38.18,-1.13,37.4,59,0,4.7
332,332,ostersund,SE,1547342400,63.18,14.64,26.6,92,88,5.82
333,333,kahului,US,1547342820,20.89,-156.47,77.13,64,90,12.75
334,334,esperance,TT,1547341200,10.24,-61.45,77,73,20,5.82
335,335,demba,CD,1547343994,-5.47,22.27,68.31,99,92,2.82
336,336,prado,BR,1547343994,-17.34,-39.22,81,91,48,11.1
337,337,atbasar,KZ,1547343994,51.81,68.36,3.15,64,32,9.91
338,338,atar,MR,1547343994,20.52,-13.05,51.93,27,0,7.63
339,339,bambous virieux,MU,1547341200,-20.34,57.76,78.8,78,40,11.41
340,340,rawannawi,,,,,,,,
341,341,upernavik,GL,1547343995,72.79,-56.15,-5.77,100,32,9.35
342,342,mount isa,AU,1547341200,-20.73,139.49,100.4,21,0,19.46
343,343,zapolyarnyy,RU,1547342400,69.43,30.82,28.4,92,68,13.87
344,344,sinkat,,,,,,,,
345,345,waddan,LY,1547343996,29.16,16.14,35.55,69,0,9.91
346,346,leiva,CO,1547343996,1.94,-77.3,64.62,97,92,2.26
347,347,coolum beach,AU,1547343996,-26.53,153.09,76.59,87,68,9.08
348,348,bathsheba,BB,1547341200,13.22,-59.52,77,73,40,9.17
349,349,tabou,CI,1547343876,4.42,-7.36,82.26,100,12,6.11
350,350,nisia floresta,BR,1547341200,-6.09,-35.21,78.8,78,0,3.36
351,351,belushya guba,,,,,,,,
352,352,borovskoy,KZ,1547343998,53.8,64.15,21.06,87,80,21.16
353,353,oga,NG,1547343998,8.18,5.65,65.16,70,8,2.37
354,354,batagay,RU,1547343820,67.65,134.64,-55.27,0,8,2.82
355,355,merauke,ID,1547344001,-8.49,140.4,87.3,84,32,6.4
356,356,luorong,CN,1547344002,24.41,109.6,49.23,99,92,5.73
357,357,xining,CN,1547344002,36.62,101.77,16.02,50,8,3.04
358,358,rawson,AR,1547344002,-43.3,-65.11,60.48,51,0,10.8
359,359,salina,US,1547342100,36.29,-95.15,33.76,100,90,10.29
360,360,canmore,CA,1547341200,51.09,-115.35,37.4,37,75,11.41
361,361,yoshii,JP,1547340960,36.25,138.98,42.08,59,40,8.05
362,362,carrollton,US,1547343300,33.58,-85.08,37.89,100,90,12.75
363,363,mys shmidta,,,,,,,,
364,364,flinders,AU,1547343632,-34.58,150.85,76.59,75,32,6.11
365,365,encruzilhada do sul,BR,1547344004,-30.54,-52.52,69.93,97,80,5.88
366,366,hamilton,BM,1547340900,32.3,-64.78,60.8,82,75,12.75
367,367,sibolga,ID,1547344004,1.74,98.78,72.72,99,68,2.3
368,368,tessalit,ML,1547343450,20.2,1.01,43.02,30,0,9.24
369,369,caluquembe,AO,1547344005,-13.78,14.68,54.72,86,8,2.53
370,370,fairbanks,US,1547340960,64.84,-147.72,-25.69,61,75,4.32
371,371,adrar,DZ,1547341200,27.87,-0.29,39.2,44,0,8.05
372,372,nizwa,OM,1547344005,22.93,57.53,54.9,74,64,2.37
373,373,ambulu,ID,1547344005,-8.35,113.61,82.98,100,44,3.87
374,374,shitanjing,CN,1547344006,39.23,106.34,20.34,58,0,1.3
375,375,amderma,,,,,,,,
376,376,gualaquiza,EC,1547344006,-3.4,-78.58,62.28,98,80,2.04
377,377,manicore,BR,1547344006,-5.81,-61.3,76.32,90,12,2.04
378,378,anqing,CN,1547344006,30.51,117.04,45.72,100,8,8.57
379,379,zemio,CF,1547344007,5.02,25.13,66.24,80,20,3.31
380,380,pedasi,PA,1547344007,7.53,-80.03,80.64,94,64,16.8
381,381,cockburn town,TC,1547343903,21.46,-71.14,75.15,100,88,17.81
382,382,scarborough,GB,1547340600,54.28,-0.41,51.8,81,92,19.46
383,383,grand river south east,,,,,,,,
384,384,brae,GB,1547342400,60.4,-1.35,48.2,93,92,26.4
385,385,vostok,RU,1547343427,46.45,135.83,16.29,64,0,3.04
386,386,troyes,FR,1547341200,48.3,4.07,45.37,93,92,17.22
387,387,yarim,YE,1547344008,14.3,44.38,28.98,65,0,2.75
388,388,lubao,PH,1547341200,14.94,120.6,80.65,57,40,6.93
389,389,te anau,NZ,1547344009,-45.41,167.72,61.74,48,32,7.34
390,390,poya,NC,1547344009,-21.35,165.16,78.21,100,44,20.42
391,391,nador,MA,1547341200,35.17,-2.93,40.96,81,0,6.51
392,392,murmashi,RU,1547343000,68.82,32.82,14,92,75,2.24
393,393,marsh harbour,BS,1547344009,26.54,-77.06,74.34,100,24,14.61
394,394,alice springs,AU,1547341200,-23.7,133.88,102.2,14,0,14.99
395,395,kiboga,UG,1547344010,0.92,31.77,57.78,63,12,4.5
396,396,bilyayivka,UA,1547343000,46.48,30.22,30.2,86,90,4.47
397,397,san ramon,NI,1547344011,12.92,-85.84,63.81,90,80,2.08
398,398,tyumentsevo,RU,1547343832,53.32,81.5,-2.35,73,20,8.75
399,399,jining,CN,1547344011,35.41,116.58,42.84,69,0,4.54
400,400,dunda,IN,1547343745,30.62,78.32,32.04,100,92,1.59
401,401,yamada,JP,1547341200,36.58,137.08,44.6,65,40,3.36
402,402,ust-kuyga,RU,1547344012,70,135.55,-36.1,0,36,2.86
403,403,waingapu,ID,1547344012,-9.65,120.26,86.04,79,36,4.72
404,404,polazna,RU,1547341200,58.29,56.41,24.8,92,75,8.95
405,405,sorland,NO,1547344012,67.67,12.69,33.84,100,88,14.34
406,406,alta floresta,BR,1547344013,-9.87,-56.08,74.97,94,88,2.04
407,407,gonzales,US,1547342400,36.51,-121.44,56.62,76,90,5.82
408,408,harper,US,1547343300,30.3,-99.24,46.13,70,1,8.12
409,409,padang,ID,1547343791,-0.92,100.36,81.27,100,44,2.37
410,410,sangar,RU,1547343620,63.92,127.47,-26.83,41,32,6.62
411,411,nanortalik,GL,1547343478,60.14,-45.24,30.06,94,92,20.38
412,412,murray bridge,AU,1547344014,-35.12,139.28,79.2,52,0,7.9
413,413,jupiter,US,1547342100,26.93,-80.09,67.39,74,1,3.36
414,414,dolinsk,RU,1547343000,47.32,142.8,12.2,66,0,4.47
415,415,katsiveli,,,,,,,,
416,416,bolshaya sosnova,RU,1547344015,57.67,54.6,28.89,93,88,10.31
417,417,malanje,AO,1547343464,-9.54,16.35,66.51,78,88,7.52
418,418,namtsy,RU,1547343000,62.72,129.66,-45.41,57,90,2.24
419,419,turtkul,,,,,,,,
420,420,hobyo,SO,1547344016,5.35,48.53,76.41,79,88,18.14
421,421,ghanzi,BW,1547344016,-21.7,21.65,64.53,39,0,5.28
422,422,semirom,IR,1547344016,31.41,51.57,12.42,55,24,3.98
423,423,baykit,RU,1547344016,61.68,96.39,-35.47,0,0,3.04
424,424,nishihara,JP,1547343000,35.74,139.53,43.72,90,40,17.22
425,425,casimiro de abreu,BR,1547341200,-22.48,-42.2,73.4,88,0,1.12
426,426,aripuana,BR,1547344017,-9.17,-60.63,75.51,93,32,0.96
427,427,cabedelo,BR,1547341200,-6.97,-34.84,75.2,94,0,4.7
428,428,zheleznodorozhnyy,RU,1547341200,55.75,38,15.8,85,90,6.71
429,429,opuwo,NA,1547343439,-18.06,13.84,52.65,53,0,3.27
430,430,port blair,IN,1547344018,11.67,92.75,83.25,98,0,12.77
431,431,tanjong malim,,,,,,,,
432,432,san quintin,PH,1547344018,17.54,120.52,79.11,62,0,3.53
433,433,rocha,UY,1547343895,-34.48,-54.34,64.71,90,0,8.23
434,434,la seyne-sur-mer,FR,1547341200,43.1,5.88,46.4,52,0,2.24
435,435,anchorage,US,1547341080,61.22,-149.89,5.13,91,90,6.93
436,436,moranbah,AU,1547344019,-22,148.04,91.26,43,0,14.9
437,437,saint andrews,NZ,1547344019,-44.53,171.19,57.78,100,92,4.05
438,438,kabin buri,TH,1547344019,13.95,101.72,89.28,45,44,5.1
439,439,bodden town,KY,1547341200,19.28,-81.25,78.8,88,40,14.99
440,440,guerrero negro,MX,1547344020,27.97,-114.04,57.42,95,64,4.05
441,441,tautira,PF,1547343000,-17.73,-149.15,82.4,74,75,14.99
442,442,yerbogachen,RU,1547344020,61.28,108.01,-19.27,55,8,4.5
443,443,rorvik,NO,1547344021,64.86,11.24,32.94,100,92,8.57
444,444,auki,NG,1547344021,12.18,6.51,59.94,39,0,7.4
445,445,lahat,ID,1547344021,-3.78,103.55,74.34,100,92,3.53
446,446,la ronge,CA,1547341200,55.1,-105.3,17.6,85,75,3.36
447,447,fanai,IR,1547344022,38.52,44.97,7.29,65,0,2.71
448,448,gladenbach,DE,1547342400,50.77,8.58,37.4,93,75,4.7
449,449,ahipara,NZ,1547344022,-35.17,173.16,73.35,69,68,10.36
450,450,karaul,,,,,,,,
451,451,lingao,CN,1547344023,19.91,109.69,71.46,91,80,7.29
452,452,qinhuangdao,CN,1547344023,39.94,119.59,34.65,26,0,3.87
453,453,grindavik,IS,1547341200,63.84,-22.43,33.8,86,40,11.41
454,454,adeje,NG,1547344023,5.68,5.76,77.22,88,12,9.08
455,455,balkhash,KZ,1547343777,46.84,74.98,12.69,95,92,8.34
456,456,beloha,MG,1547343475,-25.17,45.06,72.63,94,80,3.71
457,457,wuzhou,CN,1547344024,23.48,111.3,60.57,99,92,3.76
458,458,olafsvik,,,,,,,,
459,459,pochutla,MX,1547340060,15.74,-96.47,80.89,78,90,4.61
460,460,nelson bay,AU,1547341200,-32.72,152.14,77,73,90,19.46
461,461,aklavik,CA,1547341200,68.22,-135.01,-27.21,66,20,3.36
462,462,margate,AU,1547341200,-43.03,147.26,69.8,59,0,12.75
463,463,chunoyar,RU,1547344025,57.45,97.32,-7.57,61,36,6.85
464,464,provideniya,RU,1547343557,64.42,-173.23,-9.91,100,8,20.2
465,465,khuzdar,PK,1547343873,27.8,66.62,27.45,58,0,4.27
466,466,wahran,,,,,,,,
467,467,sechura,PE,1547344026,-5.56,-80.82,74.34,78,0,12.82
468,468,nemuro,JP,1547341200,43.32,145.57,19.4,62,20,1.12
469,469,zaykovo,RU,1547344026,57.56,62.76,23.76,85,92,14.67
470,470,zhangjiakou,CN,1547344026,40.77,114.88,18.18,43,0,4.09
471,471,anicuns,BR,1547344026,-16.46,-49.96,66.69,89,48,4.32
472,472,kologriv,RU,1547344027,58.83,44.31,13.32,85,80,7.56
473,473,canico,PT,1547341200,32.63,-16.85,62.6,72,40,12.75
474,474,rio grande,BR,1547344027,-32.03,-52.1,71.01,100,92,15.9
475,475,mbini,GQ,1547344027,1.58,9.62,77.49,100,32,11.25
476,476,khor,RU,1547344028,47.88,134.96,3.06,66,8,4.21
477,477,mahon,IE,1547343000,51.89,-8.4,46.4,87,40,11.41
478,478,angoche,MZ,1547344028,-16.23,39.91,78.12,100,92,8.9
479,479,caravelas,BR,1547344028,-17.73,-39.27,80.19,100,76,12.33
480,480,bam,IR,1547343482,29.11,58.36,24.84,66,0,2.53
481,481,kefalos,GR,1547340600,36.75,26.96,50,87,75,11.41
482,482,nouadhibou,MR,1547343853,20.93,-17.03,58.68,85,0,6.29
483,483,karla,EE,1547342400,59.37,24.93,23,92,40,3.36
484,484,beringovskiy,RU,1547344029,63.05,179.32,-7.39,92,32,26.42
485,485,zhigalovo,RU,1547343558,54.81,105.15,-5.23,65,32,5.5
486,486,baturaja,ID,1547344030,-4.12,104.17,75.42,98,92,4.54
487,487,havre-saint-pierre,CA,1547341200,50.23,-63.6,19.4,67,90,10.29
488,488,severomorsk,RU,1547343000,69.07,33.42,14,92,75,2.24
489,489,armidale,AU,1547344030,-30.51,151.67,81.09,59,0,8.3
490,490,alcaniz,ES,1547344031,41.05,-0.13,36.36,72,0,12.93
491,491,oktyabrskiy,RU,1547341200,55.61,37.97,15.82,85,90,6.71
492,492,broken hill,AU,1547341200,-31.97,141.45,86,19,0,14.99
493,493,lang son,VN,1547344031,21.83,106.73,65.88,100,92,2.98
494,494,shadegan,IR,1547341200,30.65,48.67,50,76,75,5.28
495,495,sinnamary,GF,1547344032,5.38,-52.96,78.57,95,56,10.36
496,496,port shepstone,ZA,1547344032,-30.74,30.45,72,91,0,16.4
497,497,gushi,CN,1547344032,32.17,115.65,43.83,92,64,4.54
498,498,takoradi,GH,1547344033,4.89,-1.75,81.9,100,36,7.9
499,499,sabha,LY,1547344033,27.03,14.43,25.38,78,0,5.77
500,500,huntsville,US,1547342100,34.73,-86.59,43.02,88,90,14.99
501,501,avesta,SE,1547342400,60.15,16.18,20.25,100,20,3.36
502,502,ilulissat,GL,1547340600,69.22,-51.1,-5.81,43,75,9.17
503,503,san nicolas,HN,1547344034,14.94,-88.33,59.76,89,0,1.97
504,504,hervey bay,AU,1547341200,-25.3,152.85,87.8,40,40,18.34
505,505,kerema,PG,1547344034,-7.96,145.78,80.91,84,68,2.98
506,506,asyut,EG,1547341200,27.18,31.19,44.6,81,0,9.17
507,507,rio tuba,PH,1547344035,8.51,117.43,82.89,87,44,13.11
508,508,nikolayevsk-na-amure,RU,1547344035,53.14,140.72,9.09,64,0,8.57
509,509,ponta delgada,PT,1547341200,37.73,-25.67,59,77,40,10.29
510,510,gat,SN,1547341200,14.69,-16.54,69.8,83,0,11.41
511,511,gudari,IN,1547344036,19.34,83.79,62.55,83,0,3.31
512,512,kuytun,RU,1547344036,54.34,101.51,-1.27,55,44,8.23
513,513,santa rosa,AR,1547343600,-36.62,-64.29,62.6,88,90,18.34
514,514,khairagarh,IN,1547344038,21.42,80.98,62.64,77,0,3.83
515,515,novoagansk,RU,1547344038,61.94,76.66,-5.41,70,68,11.81
516,516,biak,ID,1547344038,-0.91,122.88,83.52,88,20,2.08
517,517,villa carlos paz,AR,1547341200,-31.42,-64.5,71.6,53,75,2.24
518,518,sobolevo,RU,1547344039,54.43,31.9,26.28,91,88,8.34
519,519,keti bandar,PK,1547344039,24.14,67.45,65.61,100,0,13.33
520,520,elat,CM,1547344039,2.91,11.16,70.92,94,68,3.2
521,521,karasjok,NO,1547342400,69.47,25.52,30.2,74,32,25.28
522,522,tupik,RU,1547344040,54.43,119.94,-13.78,39,24,2.3
523,523,linxia,CN,1547344040,35.6,103.21,20.79,41,44,3.53
524,524,saint-augustin,FR,1547341200,44.83,-0.61,48.4,100,75,9.17
525,525,kavieng,PG,1547344040,-2.57,150.8,82.98,100,48,11.77
526,526,dicabisagan,PH,1547343922,17.08,122.42,73.26,100,76,7
527,527,ancud,CL,1547341200,-41.87,-73.83,48.2,76,48,5.82
528,528,vardo,US,1547342400,39.62,-77.74,29.03,88,90,3.36
529,529,hovd,NO,1547340600,63.83,10.7,32,91,20,13.87
530,530,coihaique,CL,1547341200,-45.58,-72.07,51.8,53,0,5.82
531,531,tubruq,,,,,,,,
532,532,kuyanovo,RU,1547344042,56.95,86.47,-22.33,33,12,6.33
533,533,catamarca,,,,,,,,
534,534,libreville,GA,1547341200,0.39,9.45,82.4,83,75,5.82
535,535,lowestoft,GB,1547342400,52.48,1.75,50,87,76,18.34
536,536,dargaville,NZ,1547344042,-35.94,173.86,77.67,49,80,13.44
537,537,berlevag,NO,1547343489,70.86,29.09,27.72,100,88,4.09
538,538,grand gaube,MU,1547341200,-20.01,57.66,78.8,78,40,11.41
539,539,nago,IT,1547342400,45.88,10.89,29.55,86,40,1.12
540,540,lianzhou,CN,1547344043,24.79,112.38,48.6,97,92,3.04
541,541,novo aripuana,BR,1547344044,-5.12,-60.38,76.5,90,12,1.81
542,542,deputatskiy,RU,1547343953,69.3,139.9,-31.69,0,48,2.82
543,543,sao jose da coroa grande,BR,1547344044,-8.9,-35.15,73.89,100,92,5.1
544,544,bowen,AU,1547341200,-20.01,148.25,82.4,69,90,18.34
545,545,diffa,NE,1547343806,13.32,12.61,60.21,57,0,9.24
546,546,chiang khong,LA,1547341200,20.27,100.41,64.4,100,20,3.38
547,547,aksarka,RU,1547344045,66.56,67.8,5.22,84,68,16.58
548,548,jumla,NP,1547344045,29.28,82.18,20.61,97,92,2.08
549,549,benjamin constant,BR,1547341200,-4.38,-70.03,77,100,40,3.36
550,550,sembakung,ID,1547344046,3.82,117.25,83.25,83,20,2.53
551,551,pacific grove,US,1547342400,36.62,-121.92,56.66,71,40,5.82
552,552,presidencia roque saenz pena,AR,1547344046,-26.79,-60.44,73.71,92,20,8.86
553,553,aykhal,RU,1547344047,65.95,111.51,-30.25,47,24,2.86
554,554,vaitupu,,,,,,,,
555,555,waitara,NZ,1547344047,-39,174.24,68.04,91,92,13.33
556,556,nome,US,1547342100,30.04,-94.42,55.63,56,1,10.29
557,557,nantucket,US,1547340960,41.28,-70.1,24.67,41,1,5.82
558,558,kirkuk,IQ,1547344048,35.47,44.4,44.28,56,100,8.63
559,559,khorinsk,RU,1547344048,52.16,109.78,-7.75,71,64,2.48
560,560,ucluelet,CA,1547341200,48.94,-125.55,48.2,93,90,10.29
561,561,talcahuano,CL,1547341200,-36.72,-73.12,60.8,87,0,6.93
562,562,inhambane,MZ,1547344049,-23.87,35.38,80.46,98,24,5.39
563,563,fethiye,TR,1547342400,36.62,29.12,48.2,87,75,8.05
564,564,malakal,,,,,,,,
565,565,oltu,TR,1547344050,40.55,42,16.65,83,92,2.48
566,566,gijon,ES,1547341200,43.54,-5.66,46.4,81,64,6.93
567,567,clonakilty,IE,1547343000,51.62,-8.87,46.4,87,40,11.41
568,568,roald,NO,1547342400,62.58,6.12,35.1,93,92,25.28
569,569,udomlya,RU,1547344051,57.88,35,21.87,90,76,8.75
570,570,stephenville crossing,CA,1547341200,48.5,-58.44,21.2,85,90,25.28
571,571,rudnogorsk,RU,1547344051,57.27,103.75,-1.72,57,44,9.42
572,572,port-de-bouc,FR,1547341200,43.4,4.98,44.58,75,0,18.34
573,573,valley city,US,1547343300,46.92,-98,20.77,100,90,4.7
574,574,saint-raymond,CA,1547341200,46.89,-71.84,0.52,70,0,5.82
575,575,vazante,BR,1547344052,-17.99,-46.9,70.38,86,8,2.59
576,576,comodoro rivadavia,AR,1547341200,-45.87,-67.48,69.8,26,0,3.36
577,577,behat,IN,1547344053,30.17,77.62,53.82,92,48,6.51
578,578,uyuni,BO,1547344053,-20.46,-66.82,39.51,90,8,3.31
579,579,saint anthony,US,1547340960,43.97,-111.68,12.16,80,1,5.82
580,580,matiri,UG,1547344054,0.58,30.76,54.09,59,20,3.04
581,581,waw,,,,,,,,
582,582,vargem alta,BR,1547344054,-20.67,-41.01,66.78,96,88,4.27
583,583,geraldton,CA,1547341200,49.72,-86.95,-9.41,69,5,3.2
584,584,barentu,ER,1547344054,15.11,37.59,51.39,49,0,2.53
585,585,edmonds,US,1547342100,47.81,-122.38,49.05,93,1,1.74
586,586,saint-francois,FR,1547341200,46.42,3.91,42.8,93,90,11.41
587,587,antalaha,MG,1547344055,-14.9,50.28,76.32,98,24,4.54
588,588,astorga,ES,1547341200,42.46,-6.05,21.2,100,0,2.24
589,589,karibib,NA,1547344056,-21.94,15.86,51.21,93,0,1.74
590,590,sandnessjoen,NO,1547342400,66.02,12.63,32,100,90,6.93
591,591,lolua,,,,,,,,
592,592,sandwick,GB,1547340600,54.57,-2.89,44.6,100,92,34.45
593,593,awbari,LY,1547344057,26.59,12.77,28.71,78,0,3.98
594,594,okhotsk,RU,1547344057,59.36,143.24,-2.53,100,0,9.08
595,595,baracoa,CU,1547344057,20.35,-74.5,76.77,100,100,13.56
596,596,paamiut,GL,1547344057,61.99,-49.67,32.49,97,92,23.96
597,597,minsk,BY,1547341200,53.9,27.56,30.2,92,90,4.47
598,598,tabukiniberu,,,,,,,,
599,599,galiwinku,,,,,,,,
600,600,makakilo city,US,1547341020,21.35,-158.09,78.84,64,1,10.29
601,601,ambatondrazaka,MG,1547344058,-17.82,48.43,66.06,100,88,1.86
602,602,warrenton,ZA,1547344058,-28.11,24.85,57.96,63,0,3.53
603,603,hebertville,,,,,,,,
604,604,orlik,RU,1547344059,52.51,99.83,-9.91,55,32,5.1
605,605,navolato,MX,1547340000,24.76,-107.7,77,44,5,9.08
606,606,savinka,RU,1547344059,50.08,47.1,18,76,36,9.86
607,607,preobrazheniye,RU,1547344060,42.9,133.91,27.18,41,0,2.75
608,608,lethem,GY,1547344060,3.38,-59.8,80.64,60,0,12.93
609,609,oliver,CA,1547341200,49.18,-119.55,33.8,86,75,3.36
610,610,eyl,SO,1547344060,7.98,49.82,74.25,94,92,18.7
611,611,smidovich,RU,1547344061,48.6,133.81,4.23,63,36,3.87
612,612,skalistyy,,,,,,,,
613,613,fez,MA,1547341200,34.03,-5.02,37.56,69,0,5.82
614,614,pilar,AR,1547341200,-34.46,-58.91,74.59,73,0,8.05
615,615,portland,US,1547340960,45.52,-122.67,46.85,58,75,14.99
616,616,dauphin,CA,1547341200,51.15,-100.04,17.6,78,20,5.82
617,617,vila franca do campo,PT,1547341200,37.72,-25.43,59,77,40,10.29
618,618,changde,CN,1547344062,29.04,111.68,41.49,100,92,4.21
619,619,port augusta,AU,1547341200,-32.49,137.76,77,36,0,17.22
620,620,jacareacanga,BR,1547344063,-6.22,-57.76,78.3,79,8,3.31
621,621,ban tak,TH,1547341200,17.04,99.08,71.6,100,20,2.59
622,622,polikhnitos,,,,,,,,
623,623,arcos,BR,1547344063,-20.28,-45.54,70.11,89,44,8.3
624,624,dalbandin,PK,1547344063,28.9,64.41,35.46,78,0,5.99
625,625,svencioneliai,LT,1547344064,55.17,26,24.84,90,80,6.55
626,626,moron,VE,1547344064,10.49,-68.2,66.24,94,76,2.98
627,627,bur gabo,,,,,,,,
628,628,bangassou,CF,1547344064,4.74,22.82,70.29,82,12,2.08
